{"type":"FeatureCollection","features":[{"type":"Feature","properties":{"name":"ulkoilusaaret"}},{"type":"Feature","geometry":{"type":"Point","coordinates":[24.804733,60.156513]},"properties":{"name":"Tvijälp"}},{"type":"Feature","geometry":{"type":"Point","coordinates":[24.826157,60.154377]},"properties":{"name":"Korkeasaari"}},{"type":"Feature","geometry":{"type":"Point","coordinates":[24.685938,60.089653]},"properties":{"name":"Rövargrundet"}},{"type":"Feature","geometry":{"type":"Point","coordinates":[24.760916,60.13997]},"properties":{"name":"Iso-Vasikkasaari"}},{"type":"Feature","geometry":{"type":"Point","coordinates":[24.67526,60.080906]},"properties":{"name":"Kaparen"}},{"type":"Feature","geometry":{"type":"Point","coordinates":[24.663658,60.086063]},"properties":{"name":"Stora Herrö"}},{"type":"Feature","geometry":{"type":"Point","coordinates":[24.751534,60.094315]},"properties":{"name":"Gåsgrundet"}},{"type":"Feature","geometry":{"type":"Point","coordinates":[24.682531,60.08389]},"properties":{"name":"Rövaren"}},{"type":"Feature","geometry":{"type":"Point","coordinates":[24.788216,60.106537]},"properties":{"name":"Torra Lövö"}},{"type":"Feature","geometry":{"type":"Point","coordinates":[25.002718,60.18138]},"properties":{"name":"Honkaluoto (saari)"}},{"type":"Feature","geometry":{"type":"Point","coordinates":[24.930172,60.094273]},"properties":{"name":"Laakapaasi (saari)"}},{"type":"Feature","geometry":{"type":"Point","coordinates":[25.173527,60.16892]},"properties":{"name":"Pihlajaluoto (saari)"}},{"type":"Feature","geometry":{"type":"Point","coordinates":[25.109179,60.175785]},"properties":{"name":"Villaluodot Itäinen saari"}},{"type":"Feature","geometry":{"type":"Point","coordinates":[24.898878,60.17022]},"properties":{"name":"Hietaniemenkarit (saari) (telakka)"}},{"type":"Feature","geometry":{"type":"Point","coordinates":[24.835718,60.130352]},"properties":{"name":"Korkeakupu"}},{"type":"Feature","geometry":{"type":"Point","coordinates":[24.92722,60.12781]},"properties":{"name":"Tiirakari (saari)"}},{"type":"Feature","geometry":{"type":"Point","coordinates":[24.934294,60.091053]},"properties":{"name":"Ytterskär (ulkosaari)"}},{"type":"Feature","geometry":{"type":"Point","coordinates":[24.91002,60.12392]},"properties":{"name":"Koirakari (saari)"}},{"type":"Feature","geometry":{"type":"Point","coordinates":[25.104532,60.17509]},"properties":{"name":"Kotiluoto (saari)"}},{"type":"Feature","geometry":{"type":"Point","coordinates":[25.161842,60.189297]},"properties":{"name":"Neitsytsaaret (saari)"}},{"type":"Feature","geometry":{"type":"Point","coordinates":[25.167652,60.19541]},"properties":{"name":"Niemenapaja"}},{"type":"Feature","geometry":{"type":"Point","coordinates":[24.884468,60.17227]},"properties":{"name":"Porsas"}},{"type":"Feature","geometry":{"type":"Point","coordinates":[25.173878,60.163895]},"properties":{"name":"Hattusaari (saari)"}},{"type":"Feature","geometry":{"type":"Point","coordinates":[24.847015,60.08504]},"properties":{"name":"Koirasaari ja -luodot (ulkosaari)"}},{"type":"Feature","geometry":{"type":"Point","coordinates":[24.876232,60.09792]},"properties":{"name":"Louekari (saari)"}},{"type":"Feature","geometry":{"type":"Point","coordinates":[24.922853,60.09567]},"properties":{"name":"Långskär (ulkosaari)"}},{"type":"Feature","geometry":{"type":"Point","coordinates":[25.118914,60.185894]},"properties":{"name":"Malkasaari (saari)"}},{"type":"Feature","geometry":{"type":"Point","coordinates":[24.864113,60.127583]},"properties":{"name":"Pihlaisto"}},{"type":"Feature","geometry":{"type":"Point","coordinates":[24.945847,60.12068]},"properties":{"name":"Viinakupu (saari)"}},{"type":"Feature","geometry":{"type":"Point","coordinates":[24.958004,60.122604]},"properties":{"name":"Abrahaminluoto (saari)"}},{"type":"Feature","geometry":{"type":"Point","coordinates":[24.96042,60.125435]},"properties":{"name":"Långören (ulkosaari)"}},{"type":"Feature","geometry":{"type":"Point","coordinates":[24.923042,60.117237]},"properties":{"name":"Mäntykari (saari)"}},{"type":"Feature","geometry":{"type":"Point","coordinates":[24.899948,60.171528]},"properties":{"name":"Ourit (Talviuimarit)"}},{"type":"Feature","geometry":{"type":"Point","coordinates":[24.961527,60.12035]},"properties":{"name":"Räntty (saari)"}},{"type":"Feature","geometry":{"type":"Point","coordinates":[24.932312,60.119232]},"properties":{"name":"Syväkari (saari)"}},{"type":"Feature","geometry":{"type":"Point","coordinates":[24.9256,60.12208]},"properties":{"name":"Söderholminkupu (saari)"}},{"type":"Feature","geometry":{"type":"Point","coordinates":[24.956772,60.127968]},"properties":{"name":"Taulukari (ulkosaari)"}},{"type":"Feature","geometry":{"type":"Point","coordinates":[25.098087,60.176777]},"properties":{"name":"Villaluodot Läntinen saari"}},{"type":"Feature","geometry":{"type":"Point","coordinates":[25.492796,60.20019]},"properties":{"name":"Kaivokari, P 60° 11,957' ja I 25° 29,622'"}},{"type":"Feature","geometry":{"type":"Point","coordinates":[25.02321,60.17947]},"properties":{"name":"Pyysaari 60°10,8' P, 25°01,4' I"}},{"type":"Feature","geometry":{"type":"Point","coordinates":[24.886662,60.183857]},"properties":{"name":"Seurasaari, 60°10'52'N, 024°53'05'E"}},{"type":"Feature","geometry":{"type":"Point","coordinates":[25.076748,60.18404]},"properties":{"name":"Vartiosaari, P 60° 10,782' ja I 25° 4,207'"}},{"type":"Feature","geometry":{"type":"Point","coordinates":[25.013008,60.153152]},"properties":{"name":"Vasikkasaari, P 60° 9,177' ja I 25° 0,821'"}},{"type":"Feature","geometry":{"type":"Point","coordinates":[23.113066,59.908447]},"properties":{"name":"Bengtsår, P 59° 54,347' ja I 23° 6,824'"}},{"type":"Feature","geometry":{"type":"Point","coordinates":[24.849087,60.14786]},"properties":{"name":"Käärmeluodot-N 60° 08,7' E 24° 50,9'"}},{"type":"Feature","geometry":{"type":"Point","coordinates":[24.797626,60.154453]},"properties":{"name":"Varsasaari 60° 9′ 5″ N, 24° 48′ 0″ E"}},{"type":"Feature","geometry":{"type":"Point","coordinates":[25.163399,60.18471]},"properties":{"name":"Kalliosaari, P 60° 11,105' ja I 25° 9,803'"}},{"type":"Feature","geometry":{"type":"Point","coordinates":[24.965508,60.159393]},"properties":{"name":"Klippan, P 60° 9,577' ja I 24° 57,924'"}},{"type":"Feature","geometry":{"type":"Point","coordinates":[24.947208,60.152008]},"properties":{"name":"Liuskasaari, 60°09,2' P, 24°56,8' I"}},{"type":"Feature","geometry":{"type":"Point","coordinates":[24.990034,60.15436]},"properties":{"name":"Lonna, P 60° 9,260' ja I 24° 59,415'"}},{"type":"Feature","geometry":{"type":"Point","coordinates":[24.952873,60.153046]},"properties":{"name":"Uunisaari, P 60° 9,187' ja I 24° 57,162'"}},{"type":"Feature","geometry":{"type":"Point","coordinates":[25.113924,60.15779]},"properties":{"name":"Villinki, P 60° 9,376' ja I 25° 6,499'"}},{"type":"Feature","geometry":{"type":"Point","coordinates":[24.957806,60.151093]},"properties":{"name":"Harakan saari, P 60° 9,029' ja I 24° 57,451'"}},{"type":"Feature","geometry":{"type":"Point","coordinates":[24.984728,60.17069]},"properties":{"name":"Hylkysaari, P 60° 10,325' ja I 24° 59,473'"}},{"type":"Feature","geometry":{"type":"Point","coordinates":[25.052797,60.101543]},"properties":{"name":"Isosaari, P 60° 6,112' ja I 25° 3,176'"}},{"type":"Feature","geometry":null,"properties":{"name":"Lähteelän ulkoilualue N 59° 58,8' E 24° 26,3'"}},{"type":"Feature","geometry":{"type":"Point","coordinates":[25.007662,60.138794]},"properties":{"name":"Vallisaari ja Kuninkaansaari, P 60° 8,161' ja I 25° 0,074'"}},{"type":"Feature","geometry":{"type":"Point","coordinates":[25.22324,60.123837]},"properties":{"name":"Eestiluoto, P 60° 7.452' ja I 25° 13.385'"}},{"type":"Feature","geometry":{"type":"Point","coordinates":[23.933254,59.981426]},"properties":{"name":"Elisaari, P 59° 58,849'ja I 23° 55,837'"}},{"type":"Feature","geometry":{"type":"Point","coordinates":[24.998032,60.207726]},"properties":{"name":"Lammassaari, P 60° 12,460' ja I 25° 0,027'"}},{"type":"Feature","geometry":{"type":"Point","coordinates":[24.918116,60.138817]},"properties":{"name":"Pihlajasaaret, P 60° 8,276' ja I 24° 54,928'"}},{"type":"Feature","geometry":{"type":"Point","coordinates":[25.338879,60.171497]},"properties":{"name":"Kaunissaari P 60° 10,427' ja I 25° 20,727'"}},{"type":"Feature","geometry":{"type":"Point","coordinates":[24.868568,60.172527]},"properties":{"name":"Mustasaari, P 60° 10,343' ja I 24° 52,123'"}},{"type":"Feature","geometry":{"type":"Point","coordinates":[24.966434,60.15109]},"properties":{"name":"Särkkä, P 60° 9,034' ja I 24° 57,990'"}},{"type":"Feature","geometry":{"type":"Point","coordinates":[24.968899,60.173645]},"properties":{"name":"Tervasaari ja Tervasaarenkannas, P 60° 10,425' ja I 24° 58,084'"}},{"type":"Feature","geometry":{"type":"Point","coordinates":[24.96573,60.16132]},"properties":{"name":"Valkosaari P 60° 9,693' ja I 24° 57,965'"}},{"type":"Feature","geometry":{"type":"Point","coordinates":[24.995714,60.20577]},"properties":{"name":"Kuusiluoto, P 60° 12,239' ja I 24° 59,696'"}},{"type":"Feature","geometry":{"type":"Point","coordinates":[25.144588,60.169388]},"properties":{"name":"Pikku Leikosaari, P 60° 10,154' ja I 25° 8,679'"}},{"type":"Feature","geometry":{"type":"Point","coordinates":[24.942465,60.152096]},"properties":{"name":"Sirpalesaari P 60° 9,140' ja I 24° 56,565'"}},{"type":"Feature","geometry":{"type":"Point","coordinates":[24.988483,60.14672]},"properties":{"name":"Suomenlinna, P 60° 8,869' ja I 24° 59,262'"}}]}